name,refs,lat,lng,brief,area
Achzib,4,31.7,35.0,"A town in Judah, birthplace of Shelah.",-
Alexandria,4,31.2278414761719,29.9569242709775,A major city in Egypt,-
Antioch,4,38.31643056393041,31.17948683048973,A city in Pisidia where Paul preached the gospel.,-
Aphek,4,32.1047126614992,34.93197921211777,"A city in the Shephelah, site of Philistine battles.",-
Arad,4,31.28098170907087,35.12636584365214,"Arad, Canaanite city, attacked Israel, later inhabited by Kenites",Tribe of Benjamin
Ararat,4,39.70289295384448,44.29818047261773,A mountain range where Noah's ark rested after the flood.,-
Argob,4,33.144,36.136,"A region in Bashan, known for its fortified cities.",-
Ashan,4,31.8099,34.9365,A city allotted to Judah and Simeon.,-
Baal-perazim,4,31.756332,35.223059,Place where David defeated the Philistines.,-
Bene-jaakan,4,30.317396,35.407152,Israelite encampment during the wilderness wanderings.,-
Beth-barah,4,31.8363211491438,35.55260017422344,Place where Gideon stationed men to intercept the Midianites.,-
Beth-jeshimoth,4,31.77691134657884,35.59865748950166,"Town in Moab, allotted to Reuben, mentioned in prophecy.",-
Beth-millo,4,32.21369123124062,35.2817986718367,"Fortified place in Shechem, associated with Abimelech's rule.",-
Beth-peor,4,31.656099,35.71187,"Place east of the Jordan, where Moses was buried.",-
Beth-rehob,4,33.219354,35.544122,"Aramean city and region, allied with Ammon against David.",-
Beth-zur,4,31.596107,35.10262,"Town in Judah, fortified by Rehoboam, repaired by Nehemiah.",-
Calneh,4,32.127213,45.229995,"Ancient Mesopotamian city, possibly Kullania or Kullanhu",-
Chephirah,4,31.836401,35.095272,Gibeonite town; later part of Benjamin and Judah,-
Cherub,4,32.53650368616845,44.42088287373876,Babylonian location; home of some returning exiles,-
Chinneroth,4,32.80677585520321,35.58936052679091,Region and city near the Sea of Galilee,-
Derbe,4,37.35092016962404,33.27141769926378,City in Lycaonia visited by Paul on missionary journeys.,-
Dung Gate,4,31.777444,35.234935,"A gate in Jerusalem's wall, possibly used for waste removal.",-
Esau Mount,4,30.734691,35.60625,Mountainous region of Edom; judgment prophesied by Obadiah,-
Eshcol Valley,4,31.54909871686872,35.09356062020027,Valley where Israelite spies obtained a large cluster of grapes,-
Etham,4,30.467511,32.282767,Wilderness area where Israelites camped during the Exodus,-
Fish Gate,4,31.777444,35.234935,Gate in Jerusalem's wall; rebuilt by Hassenaah during Nehemiah's time,-
Gaash,4,32.121473,35.150392,Mountain in Ephraim; burial place of Joshua,-
Gebal,4,34.11910360710159,35.6461419556213,Phoenician city; skilled builders; allied against Israel,-
Gederah,4,31.823337,34.777779,Town in Judah; home of Baal-hanan and Jozabad,-
Gerizim Mount,4,32.19956174365378,35.27285228460234,Mountain in Samaria; site of blessings and Jotham's parable,-
Giloh,4,31.616667,35.083333,"A city in Judah; home of Ahithophel, David's counselor.",-
Golan,4,32.80007552505443,35.93730130476259,"A city of refuge in Bashan, allotted to Manasseh.",-
Hammath,4,33.125828,35.165,A fortified city and Levitical town in Naphtali.,Tribe of Judah
Harod,4,32.549638,35.355647,A spring near where Gideon gathered his army.,-
Havvoth-jair,4,32.042523,35.724241,Villages in Gilead captured by Jair,-
Hazar-enan,4,34.229499,37.240077,Town on the northern border of Israel,-
Hazar-shual,4,31.215418,34.942986,Town allotted to Judah and Simeon,-
Horesh,4,31.45113920529978,35.08840337232346,A wilderness area where David hid from Saul,-
Hor-haggidgad,4,30.358285,35.19027,An Israelite campsite during the wilderness wanderings,-
Ijon,4,33.32804402945069,35.61187505342423,A town in northern Israel conquered by Assyria,-
Jattir,4,31.40143851886152,35.06941349210527,A town in the hill country of Judah,-
Jeshimon,4,31.46152536164766,35.39241108242345,"A wilderness near Ziph, where David hid from Saul",-
Jokneam,4,32.66454576550823,35.10891818863304,"A Canaanite city, later a Levitical city in Zebulun",-
Kedemoth,4,31.646073,35.894537,"A town in Moab, later a Levitical city in Reuben",-
Kir,4,33.123611,45.931389,"A city or region in Mesopotamia, possibly Elam",Assyria
Kue,4,36.91802695356275,34.89153398422567,A place Solomon obtained horses,-
Mephaath,4,31.85,35.933333,"A Levitical city in Reuben, later Moabite",-
Moladah,4,31.162327,35.057114,"Town in the Negev, allotted to Judah and Simeon",-
Oboth,4,31.49684513710609,35.78284105296996,A place where the Israelites camped during the Exodus,-
Phrygia,4,37.76986723761415,29.06450110237073,A region in Asia Minor with early Christians,-
Pi-hahiroth,4,29.94658,32.425144,A place near the Red Sea crossing,-
Rameses,4,30.799370210096,31.834216685474,Egyptian city where Israelites lived before the Exodus,-
Rehob,4,32.955448,35.211971,Levitical city in Asher,-
Rimmon,4,31.93466,35.297063,Rock where Benjamites fled after battle,-
Salecah,4,32.493941,36.710337,"City in Bashan, east of the Jordan River",-
Sepharad,4,38.47682690345803,28.11413118732089,City in Asia Minor; destination of exiled Jews,-
Shaveh,4,31.58333333329998,35.70000000000012,Valley where Chedorlaomer defeated the Emites,-
Sheep Gate,4,31.777444,35.234935,Gate in Jerusalem near the sheep market,-
Sin,4,28.838778,33.420573,Wilderness area between Elim and Sinai,-
Smyrna,4,38.45196037886051,27.16192104844777,One of the seven churches of Asia Minor,-
Succoth,4,30.62077414398056,32.25869322351544,First Israelite campsite after leaving Egypt during Exodus,-
Thyatira,4,38.92579128786831,27.85655574592795,"City in Asia Minor, home of the prophet Lydia",-
Tower of Hananel,4,31.777444,35.234935,"A tower in Jerusalem's wall, rebuilt by Nehemiah",-
Ur,4,30.9620520474569,46.10374195774169,The hometown of Abraham in Mesopotamia,-
Valley Gate,4,31.777444,35.234935,"A gate in Jerusalem's wall, rebuilt by Nehemiah",-
Zanoah,4,31.716667,35.0,A town in the Judean lowlands allotted to Judah,-
Zaphon,4,32.23771,35.585865,A city in Gad and a term for the north,-
Zarephath,4,33.4333,35.3,A Phoenician city where Elijah stayed with a widow,-
Zered,4,30.884128,35.897633,A brook marking the end of Israel's wilderness wanderings,-
Abdon,3,33.047808,35.146201,A Levitical city in the territory of Asher.,-
Abel-meholah,3,32.35601,35.536929,"A town in Israel, home of Elisha.",-
Achshaph,3,32.95182083157021,35.17382658065705,A Canaanite city-state conquered by Joshua.,-
Ahava,3,33.625197,42.786647,A place where Ezra assembled the returning exiles.,-
Akrabbim,3,30.688292,35.263182,A pass marking the southern border of Judah,-
Aphek,3,32.77826806589006,35.69874935270775,"A city in the north, site of Aramean battles.",-
Aphek,3,34.066067,35.865801,A city in the territory of Asher.,-
Areopagus,3,37.98333333333333,23.73333333333333,A hill in Athens where Paul preached the gospel.,-
Azmon,3,30.958506,34.3805,Place on the southern border of Judah.,-
Baal-zephon,3,29.938441,32.395473,Egyptian location where the Israelites camped before crossing the Red Sea.,-
Bamoth-baal,3,31.76503129703305,35.71856575741812,Moabite high place where Balak took Balaam.,-
Beer-lahai-roi,3,30.68771281376111,34.49479554246946,Well where Hagar encountered the Angel of the Lord.,-
Benjamin Gate,3,31.777444,35.234935,"Gate in Jerusalem, associated with the tribe of Benjamin.",-
Berea,3,40.5167,22.2,City in Macedonia where Paul preached; home of Sopater.,-
Berothah,3,33.93148,36.152049,City mentioned in Ezekiel's vision and David's conquests.,-
Besor,3,31.398056,34.436667,Brook where David's men pursued the Amalekites.,-
Beth-anath,3,33.146864,35.427134,"Canaanite town allotted to Naphtali, but not fully conquered.",-
Beth-azmaveth,3,31.834203,35.260706,"Town of Benjamin, home to some who returned from exile.",-
Bethel,3,31.244952,34.840888,Town in Judah that received spoils from David's victory.,Tribe of Simeon
Beth-hoglah,3,31.837062,35.513151,Town on the border between Judah and Benjamin.,-
Beth-horon Upper,3,31.85891795409998,35.12831317484221,"Town in Ephraim, near Lower Beth-horon.",-
Beth-nimrah,3,31.900811,35.625693,"Town in Gad, east of the Jordan River.",-
Bethphage,3,31.79038300543012,35.25667232374259,"Village near Bethany, where Jesus began His triumphal entry.",-
Beth-shemesh,3,33.146864,35.427134,"Fortified city in Naphtali, not conquered by the tribe.",-
Carchemish,3,36.82928161099629,38.01576051001015,Ancient city; site of Babylonian victory over Egypt,-
Cenchreae,3,37.88460365000972,22.9933595701051,Port of Corinth; home of Phoebe,-
Chesulloth,3,32.683231,35.324694,Border town of Issachar and Zebulun,-
Colossae,3,37.78333333333333,29.25,City in Phrygia; recipient of Paul's epistle,-
Daberath,3,32.69171267584284,35.37171031061986,Levitical city in Issachar's territory,-
Decapolis,3,32.6817875,35.8700227,A group of ten Hellenistic cities in ancient Palestine.,-
Diblathaim,3,31.49684513710609,35.78284105296996,A place where the Israelites camped during their wilderness wanderings.,-
Dimnah,3,32.781808,35.321364,A Levitical city in the territory of Zebulun.,-
Dothan,3,32.42064338380848,35.18019829952955,A place where Joseph found his brothers and was sold.,-
Ebenezer,3,31.83273947023218,35.1801628605877,A stone memorial set up by Samuel to commemorate victory.,-
Elah Valley,3,31.690629,34.963136,Site of David's victory over Goliath,-
En-dor,3,32.62570020915744,35.38566744418715,Canaanite city; site of Saul's consultation with medium,-
En-gannim,3,32.46349905885267,35.3036831926058,Levitical city in Issachar's territory,-
Ezem,3,31.244952,34.840888,City allotted to Judah and Simeon,-
Fountain Gate,3,31.777444,35.234935,Gate in Jerusalem's wall; rebuilt by Shallun during Nehemiah's time,-
Gath-rimmon,3,32.06972222222223,34.88305555555556,Levitical city in Dan and Manasseh,-
Gennesaret,3,32.85935860372527,35.50993742021974,Plain on the northwest shore of the Sea of Galilee,-
Gilboa,3,32.516667,35.4,A mountain range where Saul and his sons died.,-
Goshen,3,31.45,34.916667,A town and region in the hill country of Judah.,-
Habor,3,36.344972,40.789333,A river in Assyria where Israelite captives were settled.,-
Hachilah,3,31.466604,35.216691,"A hill in the Wilderness of Ziph, near David's hideout.",-
Hadid,3,31.963575,34.952536,"A town in Benjamin, resettled after the Babylonian exile.",-
Halah,3,36.344972,40.789333,A place where Israelites were exiled by the Assyrians.,-
Harosheth-hagoyim,3,32.691177,35.110039,Canaanite city ruled by Sisera,-
Helkath,3,32.955448,35.211971,Levitical city in the territory of Asher,-
Hena,3,34.467725,41.964955,Mesopotamian city conquered by Assyria,-
Holon,3,31.583333,34.95,Levitical city in the hill country of Judah,-
Jezreel Valley,3,32.5559631396043,35.33078927843792,"A fertile valley in northern Israel, site of many battles",-
Jotbathah,3,29.75804307645581,35.0306017443078,A place where the Israelites camped during their wilderness journey,-
Kabzeel,3,31.1858,34.96745,"A town in the Negev, home of Benaiah",-
Kishion,3,32.559061,35.246206,A Levitical city in Issachar,-
Kitron,3,32.753141,35.279335,A city in Zebulun not conquered,-
Lasha,3,31.718148,35.584826,A place marking Canaanite territory; a stop in Israel's journey,-
Madmannah,3,31.391668,34.940502,A town in the Negev of Judah,-
Magog,3,46.0,47.0,A nation that will attack Israel in the future,Asia
Meribah,3,28.73106102564323,33.84169995726504,A place where the Israelites quarreled with Moses,-
Miletus,3,37.5,27.3,A city in Asia Minor visited by Paul,-
Mishal,3,33.047808,35.146201,A Levitical city in Asher,-
Moresheth,3,31.60393321295081,34.90237777777779,Hometown of the prophet Micah in Judah,-
Nahalol,3,32.722209,35.35282,A Levitical city in Zebulun,-
Nebo,3,31.606256,35.037417,"A town in Judah, possibly named after a person",-
Ophrah,3,31.95378955858199,35.29913577541004,A town in Benjamin and a place in Manasseh,-
Perga,3,37.00520811721595,30.90494591606115,A city in Pamphylia visited by Paul,-
Phoenicia,3,33.56316734135746,35.36634649354799,A region and people on the Mediterranean coast,-
Pontus,3,40.905222,37.799969,A region in Asia Minor with Jewish inhabitants,-
Rimmon,3,31.370835,34.860665,A town in Judah and Simeon,-
Second Quarter,3,31.777444,35.234935,District in Jerusalem mentioned by Huldah and Zephaniah,-
Sharuhen,3,31.282222,34.4825,Town allotted to Simeon within Judah's territory,-
Shimron,3,32.70528895585606,35.21333285757741,"Canaanite city conquered by Joshua, allotted to Zebulun",-
Shunem,3,32.60563102234625,35.33430585716489,Town in Issachar; home of the Shunammite woman,-
Siddim Valley,3,31.235341,35.517624,Valley near the Dead Sea; site of battle,-
Syene,3,24.066181,32.895862,"Southern border of Egypt, modern-day Aswan",-
Tamar,3,31.024923,35.064154,Landmark on the southeastern border of Israel,-
Tema,3,27.633172,38.554125,Arabian city and tribe known for trade,-
Thebez,3,32.3241024517848,35.36825275634464,Canaanite city where Abimelech was killed,-
Timnath-heres,3,32.121473,35.150392,"Town allotted to Joshua, where he was buried",-
Uz,3,30.0334,36.44839,"A region associated with Job, Edom, and Arabia",Edom
Washer's Field,3,31.769079,35.227994,"A location near Jerusalem's wall, mentioned in prophecies",-
Abana,2,33.545097,36.224661,"A river of Damascus, preferred by Naaman over the Jordan.",-
Abronah,2,29.75804307645581,35.0306017443078,A desert campsite during Israel's wilderness wanderings.,-
Acco,2,32.927583,35.081555,"A seaport in Asher, also called Ptolemais.",-
Achzib,2,33.04846798541127,35.10220252805766,A coastal town allotted to Asher.,-
Adummim,2,31.817585,35.361646,A pass on the border between Judah and Benjamin.,-
Ahlab,2,33.02498036359259,35.44544657992798,A Canaanite city allotted to Asher.,-
Ain,2,34.353071,36.385705,A place on the eastern boundary of the Promised Land.,-
Alemeth,2,31.828406,35.287637,A Levitical city in Benjamin,-
Alush,2,28.770015,33.40046,A campsite during Israel's wilderness journey.,-
Anab,2,31.403888,34.944185,A city in the hill country of Judah.,-
Arumah,2,32.154887,35.318192,A city associated with Abimelech and King Jehoiakim's mother.,-
Arvad,2,34.856082,35.858485,"An island city, known for its skilled mariners and soldiers.",-
Ashnah,2,31.8099,34.9365,Two cities in the Shephelah region of Judah.,-
Ashteroth-karnaim,2,32.7666666667,36.0166666667,Ancient city defeated by Chedorlaomer,-
Assos,2,39.48955031303715,26.33586734239906,"A seaport in Mysia, visited by Paul.",-
Ataroth,2,31.85891795409998,35.12831317484221,A town on the border of Ephraim and Manasseh.,-
Ataroth,2,31.60000000000001,35.7,Town in Gilead allotted to Gad,-
Ataroth-addar,2,31.85891795409998,35.12831317484221,A town on the border of Ephraim and Benjamin.,-
Avith,2,30.734691,35.60625,Capital city of Edomite king Hadad.,Edom
Baalath,2,31.927451,35.055378,"Town fortified by Solomon, possibly in the Lebanon region.",-
Bamoth,2,31.76503129703305,35.71856575741812,Israelite encampment in Moab during the Exodus.,-
Beautiful Gate,2,31.777444,35.234935,"Gate of the Jerusalem temple, site of Peter's miracle.",-
Beracah Valley,2,31.61065,35.165648,Valley where Jehoshaphat and his army blessed the Lord.,-
Beth-eked,2,32.5559631396043,35.33078927843792,Place where Jehu killed the brothers of Ahaziah.,-
Bethesda,2,31.777444,35.234935,Pool in Jerusalem where Jesus healed a paralyzed man.,-
Beth-haccherem,2,31.665911,35.241516,"Town in Judah, possibly fortified, mentioned by Jeremiah.",-
Beth-haram,2,31.816667,35.583333,"Town in Gad, east of the Jordan, fortified by Gad.",-
Beth-pelet,2,31.215418,34.942986,"Town in southern Judah, resettled after the Babylonian exile.",-
Beth-togarmah,2,40.065539,45.036328,"Region or people group trading with Tyre, allied with Gog.",-
Bezek,2,31.898029,34.952878,City where Judah defeated Canaanites,-
Bithynia,2,40.905503,30.685778,A region in Asia Minor,-
Bozkath,2,31.56485056116292,34.8467256730566,"Town in Judah, birthplace of Josiah's mother",-
Broad Wall,2,31.777444,35.234935,Section of Jerusalem's wall,-
Caesarea Philippi,2,33.2480599128704,35.69463725353769,City where Peter confessed Jesus as Messiah,-
Calah,2,36.142884,43.312178,Ancient Assyrian city built by Nimrod,-
Cappadocia,2,36.731904,35.486302,Region in Asia Minor; home to early Christian believers,-
Casiphia,2,35.136204,36.749488,Place where Levites were recruited for temple service,-
Cherith,2,32.309099,35.5599,Brook where Elijah hid during drought,-
Chesalon,2,31.781049,35.05113,Landmark on Judah's northern border,-
Chorazin,2,32.90909168933021,35.55292324144203,Town in Galilee; rebuked by Jesus for unbelief,-
Corban,2,31.777444,35.234935,Offering dedicated to God; temple treasury,-
Cuthah,2,32.733333,44.666667,Babylonian city; origin of Samaritan settlers,-
Dinhabah,2,30.336614,35.529889,The capital city of Edom during Bela's reign.,Edom
Dophkah,2,28.770015,33.40046,A place where the Israelites camped during their wilderness wanderings.,-
Dragon Spring,2,31.777444,35.234935,"A water source near Jerusalem, mentioned in Nehemiah's wall inspection.",-
Ellasar,2,37.056944,40.997222,Mesopotamian city-state; allied with Elam against Sodom and Gomorrah,-
Eltekeh,2,31.869521,35.06688,City in Dan's territory; later given to the Levites,-
Eltolad,2,31.244952,34.840888,A town allotted to Judah and Simeon,Tribe of Simeon
Enaim,2,31.784368,34.90968,"Enaim, place where Tamar posed as a prostitute",-
En-shemesh,2,31.77402,35.270231,Spring on the border between Judah and Benjamin,-
Ephes-dammim,2,31.691186,34.944496,Place where the Philistines and Israelites fought; Goliath's challenge,-
Ephraim Gate,2,31.777444,35.234935,"Gate in Jerusalem's wall, broken down by King Jehoash",-
Ephraim Gate,2,31.777444,35.234935,"Gate in Jerusalem's wall, rebuilt during Nehemiah's time",-
Ephron Mount,2,31.675746,35.042407,Mountain on the border between Judah and Benjamin,-
Erech,2,32.322222,45.636111,Ancient Mesopotamian city; part of Nimrod's kingdom,-
Etam,2,31.370835,34.860665,Villages associated with Simeon; home of Judahite clan,Tribe of Simeon then Judah
Etam,2,31.736294,35.05485,Cliff where Samson hid after defeating the Philistines,-
Ether,2,31.8099,34.9365,City allotted to Judah and Simeon,-
Fair Havens,2,34.92138418681769,24.73114125973342,Harbor on Crete; Paul's ship stopped during journey to Rome,-
Gabbatha,2,31.777444,35.234935,Raised stone platform in Jerusalem; location of Jesus' trial,-
Gallim,2,31.816667,35.25,Town in Benjamin; home of Michal's husband Paltiel,-
Gath-hepher,2,32.73918470119603,35.32822661816711,Town in Zebulun; hometown of prophet Jonah,-
Gederoth,2,31.823337,34.777779,Town in Judah; captured by Philistines during Ahaz's reign,-
Gethsemane,2,31.777444,35.234935,Garden near Jerusalem; site of Jesus' prayer and arrest,-
Gibeah,2,31.43333151674604,35.13333188530802,A town in the hill country of Judah.,-
Gilgal,2,32.029737,35.222604,A place associated with the prophets Elijah and Elisha.,-
Gittaim,2,31.963575,34.952536,Town where Beerothites fled; later inhabited by Benjamites.,-
Halak Mount,2,30.916667,34.833333,A mountain marking the southern boundary of Joshua's conquests.,-
Hamon-gog Valley,2,31.49684513710609,35.78284105296996,A valley where Gog and his army will be buried.,-
Haradah,2,30.317396,35.407152,A desert campsite during Israel's journey from Egypt.,-
Hashmonah,2,30.317396,35.407152,A desert campsite during Israel's journey from Egypt.,-
Hauran,2,32.80007552505443,35.93730130476259,Region east of the Sea of Galilee,-
Havilah,2,30.14,35.22,"Region inhabited by Ishmaelites, raided by Saul",-
Helam,2,32.1843727808126,35.70287002746794,Place where David defeated the Arameans,-
Hepher,2,32.3667,34.8833,A Canaanite city conquered by Joshua; later a Solomonic district.,-
Hethlon,2,34.73799,36.340918,Place on the northern border of Israel,-
Hor Mount,2,33.416159,35.857256,A mountain marking Israel's northern boundary,-
Horse Gate,2,31.777444,35.234935,A gate in Jerusalem's wall near the temple,-
Immer,2,36.35941,43.152887,A place from which exiles returned to Jerusalem,-
India,2,22.0,77.0,The eastern extent of Ahasuerus' Persian Empire,-
Iphtahel Valley,2,32.832774,35.277225,A valley on the border of Zebulun and Asher,-
Iye-abarim,2,31.49684513710609,35.78284105296996,An Israelite campsite near Moab,-
Jabneel,2,31.865518,34.746856,"A town on the border of Judah, later fortified",-
Janoah,2,33.260246,35.302915,A town on the border of Ephraim,-
Jetur,2,33.41615982399708,35.85725617635589,A descendant of Ishmael and a region in Syria,-
Jogbehah,2,32.028743,35.862887,"A town in Gilead, fortified by the Gadites",-
Juttah,2,31.45,35.083333,"A town in the hill country of Judah, a Levitical city",-
Kain,2,31.5,35.166667,A town in the hill country of Judah,-
Kanah,2,32.138219,35.038971,A brook marking the border between Ephraim and Manasseh,-
Kehelathah,2,30.317396,35.407152,A place where the Israelites camped during their wilderness journey,-
Kibzaim,2,31.833333,35.3,A Levitical city in the territory of Ephraim,-
King's Highway,2,31.18132579594509,35.70214779044711,An ancient trade route through Edom and Moab,-
King's Valley,2,31.777444,35.234935,"A valley near Salem (Jerusalem), site of significant events",-
Libnah,2,31.8099,34.9365,A place where Israel camped in the wilderness,-
Luhith,2,31.288056,35.515,A place in Moab,-
Lycaonia,2,37.88353038890398,32.4942625657248,A region in Asia Minor; Paul and Barnabas preached there,-
Madon,2,32.799879,35.459506,A Canaanite city conquered by Joshua,-
Mahaneh-dan,2,31.758315,34.994252,A place between Zorah and Eshtaol; Samson's birthplace,-
Makheloth,2,30.317396,35.407152,A place where the Israelites camped in the wilderness,-
Manahath,2,31.752603,35.181972,A place where Benjamites lived after the exile,-
Masrekah,2,30.734691,35.60625,"The royal city of Samlah, an Edomite king",Edom
Mattanah,2,31.718148,35.584826,A place where the Israelites camped during their wilderness journey,-
Merom,2,33.075269,35.60548,A place where Joshua defeated Jabin's coalition,-
Michmethath,2,32.183333,35.283333,A place on the borders of Ephraim and Manasseh,-
Migron,2,31.82378102460309,35.23100936128631,A place near Gibeah where Saul camped,-
Minnith,2,31.75,35.85,An Ammonite town known for its wheat,-
Misrephoth-maim,2,33.118952,35.139434,A place near Sidon where the Canaanites fled,-
Mithkah,2,30.317396,35.407152,An Israelite campsite during the wilderness wanderings,-
Mizpeh Valley,2,33.28177,35.573371,A region near Mount Hermon,-
Moreh,2,32.21369123124062,35.2817986718367,Place near Shechem; also a hill near Gilgal,-
Moriah Mount,2,31.77759385009378,35.23525140955081,Site of Solomon's temple in Jerusalem,-
Moseroth,2,30.317396,35.407152,A place where the Israelites camped during their wilderness wanderings,-
Muster Gate,2,31.777444,35.234935,A gate in Jerusalem mentioned in Nehemiah's time,-
Mysia,2,39.50664305923271,26.08059270470616,A region in northwest Asia Minor visited by Paul,-
Naaran,2,31.949518,35.45873,A border town between Ephraim and Benjamin,-
Neah,2,32.894254,35.221877,A border town of Zebulun and Asher,-
Nephtoah,2,31.683036,35.167987,A spring on the border of Judah and Benjamin,-
New Gate,2,31.777444,35.234935,A gate in Jerusalem during Jeremiah's time,-
Nicopolis,2,39.024033,20.73573,A city in Epirus where Paul planned to winter,-
Nimrim,2,31.133191,35.531138,A place in Moab known for its waters,-
Paphos,2,34.75410576175517,32.40016213313376,A city on the island of Cyprus,-
Paran Mount,2,29.151667,33.541944,A mountain associated with God's appearance,-
Pau,2,30.734691,35.60625,A city in Edom,Edom
Pelusium,2,28.838778,33.420573,"An Egyptian city, also known as Sin",-
Pergamum,2,39.11894592031751,27.16512610475739,A city in Asia Minor with a church,-
Pethor,2,36.654616,38.068879,The hometown of Balaam in Mesopotamia,-
Philadelphia,2,38.34904803135629,28.51946209047604,One of the seven churches in Asia Minor,-
Pisidia,2,38.31643056393041,31.17948683048973,A region in Asia Minor visited by Paul,-
Punon,2,31.49684513710609,35.78284105296996,A stopping place for the Israelites in the wilderness,-
Rakkath,2,32.79553799444466,35.52922039819518,City on the western shore of the Sea of Galilee,-
Rehoboth,2,30.884128,35.897633,City associated with an Edomite king,Edom
Remeth,2,32.5559631396043,35.33078927843792,Levitical city in Issachar,-
Rezeph,2,35.95,39.016667,City conquered by the Assyrians,-
Rimmon-perez,2,31.8099,34.9365,Israelite encampment during the Exodus,-
Rissah,2,30.317396,35.407152,Israelite encampment during the Exodus,-
Rithmah,2,31.8099,34.9365,Israelite encampment during the Exodus,-
Rogelim,2,32.214708,35.632914,Hometown of Barzillai the Gileadite,-
Sarid,2,32.68978573733861,35.19666870006055,Border town of Zebulun's territory,-
Seba,2,9.022736,38.746799,Kingdom mentioned in prophetic and poetic texts,-
Shaaraim,2,31.7001,34.89532,Town in Judah; site of Philistine retreat,-
Shamir,2,32.36047,35.250054,Issacharite judge who led Israel for 23 years,-
Shepham,2,34.353071,36.385705,Landmark on the northeastern border of the Promised Land,-
Shepher Mount,2,30.317396,35.407152,Campsite during Israel's wilderness wanderings,-
Sirah,2,31.55,35.1,Place near Hebron where Abner was killed by Joab,-
Solomon's Portico,2,31.777444,35.234935,Colonnade in Jerusalem's temple where apostles taught,-
Spain,2,40.481391,-3.175332,Country Paul intended to visit to preach gospel,-
Taberah,2,28.916667,34.5,Israelite camp where God sent fire as judgment,-
Tadmor,2,34.5540491686839,38.26590497164145,City built by Solomon in the wilderness,-
Tahath,2,30.317396,35.407152,Israelite campsite during the wilderness journey,-
Telassar,2,32.18919123705116,48.25788647687722,Mesopotamian city conquered by the Assyrians,-
Tel-harsha,2,32.127213,45.229995,Babylonian city from which exiles returned,-
Tel-melah,2,32.127213,45.229995,Babylonian city from which exiles returned,-
Terah,2,30.317396,35.407152,Israelite campsite during the wilderness journey,-
Tigris,2,35.983343,43.346466,"River flowing from Eden, mentioned in Daniel's vision",-
Tower of Eder,2,31.70536129174666,35.21026630105202,"A tower near Bethlehem, associated with the Messiah",-
Tower of the Hundred,2,31.777444,35.234935,"A tower in Jerusalem's wall, rebuilt by Nehemiah",-
Tower of the Ovens,2,31.777444,35.234935,"A tower in Jerusalem's wall, rebuilt by Nehemiah",-
Ulai,2,32.178696,48.22489,"A river in Elam, near where Daniel saw a vision",-
Uphaz,2,22.0,77.0,A place known for its fine gold,-
Uzza,2,31.777444,35.234935,A garden where Manasseh and Amon were buried,-
Yeshanah Gate,2,31.777444,35.234935,"A gate in Jerusalem's wall, rebuilt by Nehemiah",-
Zaanannim,2,33.11298357486105,35.53361334150225,A place near Kedesh in Naphtali,-
Zalmonah,2,31.49684513710609,35.78284105296996,A place where the Israelites camped during their wilderness journey,-
Zedad,2,34.312571,36.925484,A place on the northern border of the Promised Land,-
Zela,2,31.792733,35.196862,A city in Benjamin where Saul's family was buried,-
Zemaraim,2,31.910999,35.45728,A town in Benjamin; also a hill in Ephraim,-
Abel-keramim,1,32.02425,35.82352,"A place near Ammon, attacked by Jephthah.",-
Abilene,1,33.5873,36.09171,A region ruled by Lysanias when John began preaching.,-
Accad,1,33.09201653975629,44.12924814594658,"An ancient city in Nimrod's kingdom, probably Akkad.",-
Adadah,1,31.1858,34.96745,A town in the Negev region of Judah.,-
Adam,1,32.09772014797369,35.56469085401976,A city near the Jordan River.,-
Adamah,1,32.7253,35.4382,A fortified city allotted to Naphtali.,-
Adami-nekeb,1,32.6105,35.54289,A boundary marker for the territory of Naphtali.,-
Addar,1,30.9522,34.7187,A boundary marker for the territory of Judah.,-
Adithaim,1,31.7001,34.89532,A town in the Shephelah region of Judah.,-
Adoraim,1,31.51666666666667,34.98333333333333,A fortified city built by Rehoboam in Judah.,-
Adramyttium,1,39.5748,26.9367,"A seaport in Asia Minor, visited by Paul.",-
Adriatic Sea,1,42.415,16.3735,The sea where Paul's ship drifted during a storm.,-
Aenon,1,32.398936,35.54351,A place near Salim where John the Baptist baptized.,-
Ai,1,31.80052000870321,35.80901866717255,"An Ammonite city, to be destroyed by Babylon.",-
Allammelech,1,32.97829,35.182915,A town allotted to Asher,-
Allon-bacuth,1,31.93053920580005,35.22103274923676,"The burial place of Deborah, Rebekah's nurse.",-
Amad,1,33.019337,35.173644,A border town in the territory of Asher.,-
Amam,1,31.162327,35.057114,A town allotted to the tribe of Judah.,-
Amana,1,33.68137,36.055039,A mountain range mentioned in the Song of Solomon.,-
Amaw,1,36.654616,38.068879,"A place near the Euphrates River, associated with Balaam.",-
Ammah,1,31.869005,35.343177,"A hill near Gibeon, where Joab pursued Abner.",-
Amphipolis,1,40.82322547229525,23.83863142894023,A city visited by Paul on his missionary journey.,-
Anaharath,1,32.607039,35.397389,A border town in the territory of Issachar.,-
Ananiah,1,31.83291,35.219683,A town inhabited by Benjamites after the Babylonian exile.,-
Angle,1,31.777444,35.234935,A tower built by King Uzziah in Jerusalem.,-
Anim,1,31.373521,35.074552,A city in the hill country of Judah.,-
Antipatris,1,32.10043792968003,34.94650938910333,A city where Paul was taken during his transfer to Caesarea.,-
Apollonia,1,40.58763251343323,23.35335168557556,A city in Macedonia visited by Paul.,-
Arab,1,31.450746,35.045648,A city allotted to the tribe of Judah.,-
Aram-maacah,1,33.2,36.5,Kingdom that fought against David,-
Aram-naharaim,1,35.1,42.0,A region mentioned in the title of Psalm 60.,-
Aram-zobah,1,33.519299,36.31344999999999,A region mentioned in the title of Psalm 60.,-
Aroer,1,31.14893187321126,34.9848522498051,"A city in Judah, receiving spoils from David.",-
Arubboth,1,31.68123465358001,34.97639817516712,A district in Israel under Solomon's rule.,-
Ashkenaz,1,40.6,44.6,A kingdom summoned to battle against Babylon.,Assyria
Atharim,1,30.880918,34.63062,A place where the Canaanite king of Arad fought Israel.,-
Atroth-shophan,1,31.9617,35.9115,Town allotted to the tribe of Gad.,-
Attalia,1,36.88082580070078,30.69456557778969,Seaport in Pamphylia visited by Paul and Barnabas.,-
Aven Valley,1,34.006944,36.203889,"Plain near Damascus, prophesied to be destroyed.",-
Avvim,1,31.53577362133176,35.09409986578734,Town allotted to the tribe of Benjamin.,-
Azal,1,31.77809503341373,35.2471976093501,Unidentified place near Jerusalem mentioned in Zechariah's prophecy.,-
Aznoth-tabor,1,32.68695640243183,35.39091304299688,Border town of Naphtali near Mount Tabor.,-
Baalah,1,31.24495217357714,34.8408885849849,Town allotted to the tribe of Simeon.,-
Baalah Mount,1,31.865518,34.746856,Mountain marking the northern boundary of Judah.,-
Baalath,1,31.927451,35.055378,Town allotted to the tribe of Dan.,-
Baal-hazor,1,31.979434,35.279229,Place where Absalom sheared his sheep.,-
Baal-shalishah,1,32.029737,35.222604,Place where a man brought provisions to Elisha.,-
Baal-tamar,1,31.82378102460309,35.23100936128631,Place near Gibeah where Israelites fought the Benjamites.,-
Bajith,1,31.49684513710609,35.78284105296996,Moabite temple or high place mentioned in Isaiah's prophecy.,-
Balah,1,31.24495217357714,34.8408885849849,Town allotted to the tribe of Simeon.,-
Bath-rabbim,1,31.80052000870321,35.80901866717255,"Gate in Heshbon, mentioned in Song of Solomon.",-
Beer,1,30.998062,35.498547,Site where God provided water for the Israelites.,-
Beer-elim,1,30.998062,35.498547,Place mentioned in Isaiah's prophecy against Moab.,-
Bene-berak,1,32.035782,34.827108,Town allotted to the tribe of Dan.,-
Benjamin Gate,1,31.777444,35.234935,"Gate in Jerusalem's wall, mentioned in Zechariah's prophecy.",-
Bered,1,30.68771281376111,34.49479554246946,Place near where Hagar encountered the Angel of the Lord.,-
Betah,1,33.93148,36.152049,City from which David took bronze after defeating Hadadezer.,-
Beten,1,32.934736,35.270799,Town allotted to the tribe of Asher.,-
Beth-anoth,1,31.558456,35.124483,Town in the hill country of Judah.,-
Beth-arbel,1,32.56101132918748,35.84782996762625,"Place destroyed by Shalman, mentioned in Hosea's prophecy.",-
Beth-biri,1,31.391668,34.940502,"Town in Simeon, formerly called Bethul.",-
Beth-car,1,31.83273947023218,35.1801628605877,Place where the Israelites pursued the Philistines.,-
Beth-dagon,1,31.908,34.775,"Town in Judah, named after the Philistine god Dagon.",-
Beth-dagon,1,32.899561,35.107928,"Town in Asher, named after the Philistine god Dagon.",-
Beth-eden,1,33.519299,36.31344999999999,Place associated with the rulers of Aram (Syria).,-
Beth-emek,1,32.978855,35.167096,"Town in Asher's territory, near the border.",-
Beth-ezel,1,31.743719,34.694006,"Town mentioned in Micah's prophecy, possibly near Jerusalem.",-
Beth-gamul,1,31.519692,35.844714,Moabite town mentioned in Jeremiah's prophecy against Moab.,-
Beth-haggan,1,32.58418313614938,35.18229165870594,Place near Jezreel where Ahaziah fled from Jehu.,-
Beth-lebaoth,1,31.391668,34.940502,"Town in Simeon, also called Lebaoth.",-
Bethlehem,1,32.735379,35.189704,"Town in Zebulun, distinct from Bethlehem in Judah.",-
Beth-merchak,1,31.391668,34.940502,Place near Jerusalem where David stayed during Absalom's revolt.,-
Beth-pazzez,1,32.46349905885267,35.3036831926058,"Beth-pazzez, town allotted to Issachar",-
Beth-shemesh,1,32.40643,35.504628,Border town of Issachar.,-
Beth-shittah,1,32.552496,35.438257,"Beth-shittah, place near where Midianites fled from Gideon",-
Beth-tappuah,1,31.52973,35.050377,Town in the hill country of Judah.,-
Betonim,1,32.0105,35.706297,Town in Gad's territory,-
Bezek,1,32.3667,35.4,Assembly point for Saul's army,-
Bilhah,1,31.24495217357714,34.8408885849849,Town in Simeon's territory,-
Biziothiah,1,31.24495217357714,34.8408885849849,"A town in the Negev, allotted to Judah",-
Bor-ashan,1,31.8099,34.9365,A town in southern Judah,-
Bozez,1,31.85716450320853,35.28714718824809,A rocky crag near Michmash,-
Brook of the Arabah,1,35.136204,36.749488,Eastern boundary of Jeroboam II's kingdom,-
Brook of the Willows,1,32.309099,35.5599,Boundary of Moab's territory,-
Buz,1,26.625139,37.919663,"Arabian tribe, possibly descendants of Nahor",-
Cabbon,1,31.5,34.7667,Town in Judah's lowlands,-
Cabul,1,32.865661,35.211814,Name given to 20 cities by Hiram,-
Cabul,1,32.865661,35.211814,Border town of Asher,-
Cauda,1,34.84351,24.091671,Island where Paul's ship sought shelter,-
Chephar-ammoni,1,31.966667,35.25,Town in Benjamin's territory,-
Chesil,1,31.244952,34.840888,Town in Judah's southern region,-
Chilmad,1,36.35941,43.152887,Trading partner of Tyre,-
Chios,1,38.44484,26.063302,Island visited by Paul on his journey,-
Chitlish,1,31.823337,34.777779,Town in Judah's Shephelah region,-
City of Salt,1,31.46152536164766,35.39241108242345,Town in the wilderness of Judah,-
Cnidus,1,36.68502255790917,27.37439432376754,City on the coast of Asia Minor,-
Cos,1,36.80467006054953,27.08994040521288,Island visited by Paul on his journey,-
Cushan,1,21.959788,31.343557,"Unknown location, possibly related to Cush",-
Dabbesheth,1,33.0,35.266682,Border town of Zebulun,-
Dalmatia,1,43.515484,16.071538,Region on the eastern coast of the Adriatic Sea.,-
Dannah,1,31.561025,34.975472,A city in the hill country of Judah.,-
Debir,1,31.816662,35.349994,A place on the northern border of Judah.,-
Dibon,1,31.1858,34.96745,"A city in Judah, inhabited by the tribe of Judah.",-
Dilean,1,31.56485056116292,34.8467256730566,A city in the lowlands of Judah.,-
Dimonah,1,31.1858,34.96745,A city in the Negev region of Judah.,-
Diviners' Oak,1,32.21369123124062,35.2817986718367,"A tree near Shechem, associated with pagan divination practices.",-
Dizahab,1,28.507836,34.516339,A place near where Moses delivered his final speeches.,-
Dumah,1,27.4,37.7,"A city or region in Arabia, recipient of a prophetic oracle.",-
Dumah,1,31.43827,34.982762,A city in the hill country of Judah.,-
Dura,1,32.53650368616845,44.42088287373876,A plain in Babylon where Nebuchadnezzar set up a statue.,-
East Gate,1,31.777444,35.234935,"A gate in Jerusalem's wall, near the house of Shemaiah.",-
Ebez,1,32.261621,35.328129,A town allotted to the tribe of Issachar.,-
Ecbatana,1,34.798311,48.514966,A city in Media where a significant scroll was found.,-
Eder,1,31.1858,34.96745,A town in the Negev region of Judah.,-
Eglaim,1,30.998062,35.498547,Moabite city; its destruction prophesied by Isaiah,-
Egypt Sea,1,27.088473,34.771729,"Likely the Gulf of Suez, part of the Red Sea",-
Elon,1,31.973818,35.116531,City in the territory of Dan,-
Elonbeth-hanan,1,31.852593,35.109078,City under the jurisdiction of Solomon's governor Ben-Deker,-
El-paran,1,29.151667,33.541944,Wilderness area where the Horites were defeated by Chedorlaomer,-
Eltekon,1,31.66057,34.995406,City in the hill country of Judah,-
Emek-keziz,1,31.837062,35.513151,"Emek-keziz, town allotted to Benjamin",-
Emmaus,1,31.83945022372554,34.9895293285359,"Emmaus, village where Jesus appeared to two disciples after resurrection",-
Enam,1,32.15,35.126,"Enam, town allotted to Judah in the Shephelah",-
Eneglaim,1,30.998062,35.498547,Place mentioned in Ezekiel's vision of restored Israel,-
En-gannim,1,31.75,34.950106,City in the lowlands of Judah,-
En-haddah,1,32.478425,35.254452,City allotted to the tribe of Issachar,-
En-hakkore,1,31.75274835811488,34.97660913147738,Spring that appeared after Samson's victory over the Philistines,-
En-hazor,1,33.1,35.35,City allotted to the tribe of Naphtali,-
Ephah,1,28.932881,34.90832,Arabian tribe; known for their camels and dromedaries,-
Esek,1,31.39129109635703,34.56057015639144,Well dug by Isaac's servants; named after quarrel,-
Eshan,1,31.420175,35.033537,City in the hill country of Judah,-
Etam,1,31.686465,35.17474,City fortified by Rehoboam in Judah,-
Eth-kazin,1,32.781808,35.321364,Border town of Zebulun near Neah,-
Ezel Stone,1,31.777444,35.234935,Location where David and Jonathan planned to meet,-
Forest Ephraim,1,35.764722,32.381111,Location of the battle between David's forces and Absalom's army,-
Forum of Appius,1,41.468706,12.993929,Marketplace on Appian Way; Christians met Paul on journey to Rome,-
Foundation Gate,1,31.777444,35.234935,Gate in Jerusalem's wall; location of Levite singers during coronation,-
Gamad,1,34.856082,35.858485,People group; defenders of the towers of Tyre,-
Gareb,1,31.777444,35.234935,A hill near Jerusalem,-
Gebim,1,31.8,35.25,Town in Benjamin; mentioned in Isaiah's prophecy,-
Gederothaim,1,31.823337,34.777779,Town in Judah; mentioned in list of allotted cities,-
Gedor,1,31.823337,34.777779,Region where Simeonites sought pasture for their flocks,-
Geruth Chimham,1,31.70536129174666,35.21026630105202,Lodging place near Bethlehem; refuge for Johanan's group,-
Giah,1,31.869005,35.343177,Location near Gibeon where Joab and Abishai pursued Abner.,-
Gibeath-elohim,1,31.93053920580005,35.22103274923676,"A place with a garrison of Philistines, near Gibeah.",-
Gidom,1,31.93466,35.297063,"A place near Gibeah, associated with the Benjamite War.",-
Gimzo,1,31.928659,34.943219,A city in Judah captured by the Philistines.,-
Goah,1,31.777444,35.234935,"A place near Jerusalem, mentioned in a prophetic context.",-
Guard Gate,1,31.777444,35.234935,"A gate in Jerusalem's wall, likely the Muster Gate.",-
Gur,1,32.45,35.2833,A place near Ibleam where Ahaziah was wounded.,-
Gurbaal,1,30.734691,35.60625,"A place inhabited by Arabians, attacked by Uzziah's army.",-
Hadad-rimmon,1,32.524106,35.205136,A place near Megiddo associated with mourning for Josiah.,-
Hadashah,1,31.679512,34.695903,A town in the Shephelah region of Judah.,-
Hadrach,1,33.519299,36.31344999999999,A region mentioned in a prophetic oracle of judgment.,-
Haeleph,1,31.792733,35.196862,A town allotted to the tribe of Benjamin.,-
Halhul,1,31.579549,35.099103,A town in the hill country of Judah.,-
Hali,1,32.934736,35.270799,A town allotted to the tribe of Asher.,-
Hall of Judgment,1,31.777444,35.234935,A hall in Solomon's palace where he administered justice.,-
Hall of Pillars,1,31.777444,35.234935,A porch with pillars in Solomon's palace.,-
Hall of the Throne,1,31.777444,35.234935,Another name for the Hall of Judgment in Solomon's palace.,-
Ham,1,30.108086,31.33822,A place where Chedorlaomer defeated the Zuzim in battle.,-
Hamonah,1,31.49684513710609,35.78284105296996,"A city in Ezekiel's vision, meaning ""multitude"" or ""horde.""",-
Hanes,1,29.085425,30.934402,An Egyptian city mentioned in a prophecy against Judah.,-
Hannathon,1,32.916002,35.426637,A border town in the territory of Zebulun.,-
Hara,1,36.344972,40.789333,A place where Israelite tribes were exiled by Tiglath-pileser.,-
Harmon,1,32.28023100000001,35.19792900000002,A place mentioned in Amos's prophecy against Israel.,-
Hazar-addar,1,30.9522,34.7187,A town on the southern border of Canaan.,-
Hazar-gaddah,1,31.162327,35.057114,Town allotted to the tribe of Judah,-
Hazar-susah,1,31.391668,34.940502,Town allotted to the tribe of Simeon,-
Hazar-susim,1,31.391668,34.940502,A town allotted to the tribe of Simeon.,-
Hazer-hatticon,1,35.136204,36.749488,Place on the ideal border of Israel,-
Hazerim,1,31.52481769532773,34.4333647185274,Settlements inhabited by the Avvim,-
Hazor,1,30.68771281376111,34.49479554246946,A town in the southland of Judah.,-
Hazor,1,31.162327,35.057114,Town in the Negev region of Judah,-
Hazor,1,31.833333,35.2,Town resettled by Benjamites after the Babylonian exile,-
Hazor-hadattah,1,31.162327,35.057114,Town in the Negev region of Judah,-
Hebron Valley,1,31.54909871686872,35.09356062020027,Valley near Hebron where Joseph sought his brothers,-
Helbah,1,34.066067,35.865801,Canaanite town not conquered by the tribe of Asher,-
Helbon,1,33.664912,36.248576,City known for its fine wine,-
Helech,1,34.856082,35.858485,A place or people mentioned in Ezekiel's prophecy.,-
Heleph,1,33.134416,35.332157,Border town of Naphtali,-
Helkath-hazzurim,1,31.880126,35.280188,Site of a battle between David's and Ish-bosheth's men,-
Heres,1,32.19998298531073,35.63331303389634,Place near where Gideon defeated the Midianites,-
Hereth,1,31.621492,35.029273,Forest where David hid from Saul,-
Heshmon,1,31.215418,34.942986,A town in the southland of Judah.,-
Hierapolis,1,37.924517,29.124525,"City in Phrygia, home to a Christian community",-
Hobah,1,33.5,36.466667,Place north of Damascus pursued by Abraham,-
Holon,1,31.50100308502659,35.92063125199366,A city in Moab,-
Horem,1,33.166667,35.433333,A fortified city in Naphtali,-
Hosah,1,32.178502,35.22758,A Levitical city in Asher,-
Hukkok,1,32.882153,35.496694,A town on the border of Naphtali,-
Humtah,1,31.53577362133176,35.09409986578734,A town in the hill country of Judah,-
Idalah,1,32.733333,35.166667,A town in Zebulun,-
Idumea,1,30.734691,35.60625,A region south of Judea,-
Iim,1,31.244952,34.840888,A town in the Negev of Judah,-
Illyricum,1,43.515484,16.071538,A region where Paul preached the gospel,-
Iphtah,1,31.8099,34.9365,A town in the Shephelah of Judah,-
Irpeel,1,31.869343,35.197712,A town in Benjamin,-
Ithlah,1,31.823593,35.075769,A town in Dan,-
Ithnan,1,31.244952,34.840888,A town in the Negev of Judah,-
Iyim,1,31.49684513710609,35.78284105296996,An Israelite campsite in the wilderness,-
Jabez,1,31.70536129174666,35.21026630105202,A place associated with the families of scribes,-
Jabneel,1,32.7,35.5,A town on the border of Naphtali,-
Jagur,1,31.1858,34.96745,A town in the Negev of Judah,-
Jair,1,32.042523,35.724241,An Israelite who possessed towns in Gilead,-
Janen,1,31.49684513710609,35.78284105296996,A place mentioned in the Septuagint,Moab
Janim,1,31.516667,35.166667,A town in the hill country of Judah,-
Janoah,1,32.155895,35.361606,A town captured by the Assyrians from Israel,-
Japhia,1,32.691633,35.274955,A town on the border of Zebulun,-
Jarmuth,1,32.5559631396043,35.33078927843792,A Levitical city in Issachar,-
Jazer Sea,1,31.94352951689796,35.72776961157128,A poetic reference to the abundant vineyards of Jazer,-
Jehud,1,32.033636,34.889599,A town allotted to Dan,-
Jekabzeel,1,31.1858,34.96745,A town in Judah inhabited after the Babylonian exile,-
Jemnath,1,31.80299971086164,34.6351145939134,A place mentioned in the Septuagint version of Joshua,Philistia
Jericho Valley,1,31.87060143818292,35.44386371224434,The valley where the city of Jericho is located,-
Jeruel,1,31.572903,35.406346,A wilderness where Jehoshaphat defeated his enemies,-
Jeshanah,1,31.980029,35.229709,A town captured by Abijah from Jeroboam,-
Jeshua,1,31.162327,35.057114,A town in Judah inhabited after the Babylonian exile,-
Jezreel,1,32.5559631396043,35.33078927843792,"A son of Saul's son Jonathan, also called Merib-baal",-
Jokdeam,1,31.366667,35.0,A town in the hill country of Judah,-
Joktheel,1,31.56485056116292,34.8467256730566,A town in the Shephelah region of Judah,-
Jotbah,1,29.75804307645581,35.0306017443078,"The hometown of Amon's mother, Meshullemeth",-
Kadesh,1,34.558327,36.522943,A place visited during David's census of Israel,-
Kamon,1,32.042523,35.724241,"The burial place of Jair, a judge of Israel",-
Karka,1,30.958506,34.3805,A place on the southern border of Judah,-
Karkor,1,32.1843727808126,35.70287002746794,A place where Gideon defeated Zebah and Zalmunna,-
Kartan,1,33.125828,35.165,A Levitical city in the territory of Naphtali,-
Kerioth-hezron,1,31.162327,35.057114,A town in the Negev region of Judah,-
Kinah,1,31.1858,34.96745,A town in the Negev region of Judah,-
Kiriathaim,1,33.125828,35.165,A Levitical city in Reuben,-
Kiriath-huzoth,1,31.76503129703305,35.71856575741812,A place Balak took Balaam,-
Koa,1,34.798311,48.514966,A people group mentioned by Ezekiel,-
Laban,1,31.8099,34.9365,A place Moses spoke to Israel,-
Lahmam,1,31.566667,34.9,A city in the lowlands of Judah,-
Laishah,1,31.8,35.25,A place near Anathoth and Gallim,-
Lakkum,1,32.68695640243183,35.39091304299688,A border town of Naphtali,-
Lasea,1,34.93491734364034,24.80919899172515,"A city near Fair Havens, Crete",-
Lasharon,1,32.72544,35.467002,A Canaanite city conquered by Joshua,-
Lebanon Mount,1,33.752479,35.590804,A mountain range marking the northern border of Israel,-
Lebaoth,1,31.391668,34.940502,A town in the Negev of Judah,-
Leb-kamai,1,30.9620520474569,46.10374195774169,A cryptic name for Chaldea (Babylonia),-
Lebonah,1,32.07077,35.239871,A place near Shiloh in Ephraim,-
Luz,1,37.0,36.57,A Canaanite city; a man built another city named Luz,-
Lycia,1,36.27471786927205,29.3186378339052,A region on the southwest coast of Asia Minor,-
Maarath,1,31.621003,35.102328,A town in the hill country of Judah,-
Maareh-geba,1,31.82378102460309,35.23100936128631,A place near Gibeah where an ambush was set,-
Madmenah,1,31.8,35.25,A place near Jerusalem,-
Makaz,1,31.870364,34.981728,A place in one of Solomon's administrative districts,-
Malta,1,35.85282675242785,14.53243601407711,An island where Paul was shipwrecked,-
Mareal,1,32.697409,35.241789,A place on the border of Zebulun,-
Maroth,1,31.743719,34.694006,A town in Judah,-
Mearah,1,33.633333,35.433333,A place near Sidon,-
Meconah,1,31.370835,34.860665,A town inhabited by the people of Judah after the exile,-
Me-jarkon,1,32.132898,34.788144,A place in the territory of Dan,-
Meroz,1,32.68695640243183,35.39091304299688,A place cursed for not helping against Sisera,-
Mesha,1,28.85726,34.859127,A place marking the Joktanite territory,-
Meshech-Tubal,1,46.0,47.0,Two nations mentioned together; defeated by Babylon,Asia
Middin,1,31.743894,35.401591,A town in the wilderness of Judah,-
Migdal-el,1,33.232131,35.362942,A fortified city in Naphtali,-
Migdal-gad,1,31.666667,34.583333,A town in the lowlands of Judah,-
Minni,1,40.6,44.6,A kingdom allied with Ararat and Ashkenaz,-
Mitylene,1,39.10033557286295,26.55180477541001,A city on the island of Lesbos visited by Paul,-
Mizar Mount,1,33.41615982399708,35.85725617635589,A mountain mentioned in a psalm of lament,-
Mizpeh,1,31.56485056116292,34.8467256730566,A town in the lowlands of Judah,-
Moreh,1,32.61773063505183,35.35737645291343,Place near Shechem; hill where Gideon camped,-
Mortar,1,31.777444,35.234935,A district or valley in or near Jerusalem,-
Moserah,1,30.317396,35.407152,A place where the Israelites camped during their wilderness wanderings,-
Mozah,1,31.802641,35.158376,A town in the territory of Benjamin,-
Myra,1,36.2307717908834,30.01145882074154,A city in Lycia where Paul's ship stopped,-
Naamah,1,31.871782,34.871894,A town in the Judean lowlands,-
Nain,1,32.63083336680386,35.34782689102158,A town in Galilee where Jesus raised a widow's son,-
Naphath,1,32.58418313614938,35.18229165870594,A region in Issachar with Manassite towns,-
Neapolis,1,40.94413199321298,24.41767995412326,A port city in Macedonia visited by Paul,-
Neballat,1,31.992079,34.957563,A town in Benjamin inhabited by Benjamites after the exile,-
Netaim,1,31.823337,34.777779,A place associated with potters in Judah,-
Nezib,1,31.58805,34.992389,A town in the Judean lowlands,-
Nibshan,1,31.46152536164766,35.39241108242345,A town in the Judean wilderness,-
Ophni,1,31.961989,35.215483,A town in Benjamin,-
Parah,1,31.833333,35.3,A city in Benjamin's territory,-
Patara,1,36.27471786927205,29.3186378339052,A city in Lycia visited by Paul,-
Patmos,1,37.30752,26.548274,An island where John received the Revelation,-
People's Gate,1,31.777444,35.234935,A gate in Jerusalem mentioned by Jeremiah,-
Perazim Mount,1,31.756332,35.223059,A place where David defeated the Philistines,-
Perez-uzza,1,31.777444,35.234935,A place named after Uzzah's death,-
Pharpar,1,33.379601,36.306085,"A river in Damascus, Syria",-
Phoenix,1,35.1988857652248,24.08098202270813,A harbor on the island of Crete,-
Pi-beseth,1,30.583333,31.5,An Egyptian city mentioned in Ezekiel's prophecy,-
Pithom,1,30.59385132817632,32.18555803140015,A store city built by the Israelites in Egypt,-
Potsherd Gate,1,31.777444,35.234935,A gate in Jerusalem mentioned by Jeremiah,-
Puteoli,1,40.83563065297087,14.2677438666742,A port city in Italy visited by Paul,-
Raamah,1,15.68,42.78,"A trading partner of Tyre, possibly in Arabia",-
Raamses,1,30.59385132817632,32.18555803140015,A store city built by the Israelites in Egypt,-
Rabbith,1,32.391416,35.377302,A town allotted to the tribe of Issachar,-
Rakkon,1,32.132898,34.788144,A town allotted to the tribe of Dan,-
Ramah,1,33.111078,35.310464,A town on the border of Asher and Tyre,-
Ramah,1,32.93901,35.368123,A fortified city in the territory of Naphtali,-
Ramath-lehi,1,31.75274835811488,34.97660913147738,The place where Samson killed a thousand Philistines,-
Recah,1,31.70536129174666,35.21026630105202,Descendant of Judah,-
Rehob,1,33.125828,35.165,City on the border of Asher,-
Rehoboth,1,31.066829,34.59783,Well dug by Isaac,-
Rekem,1,31.869343,35.197712,City in Benjamin,-
Resen,1,36.35941,43.152887,Ancient Assyrian city built by Nimrod,-
Rhegium,1,38.11158003147303,15.64327902497161,Italian city visited by Paul,-
Rhodes,1,36.44192632910195,28.22672173336723,Island visited by Paul on his journey,-
Riblah,1,34.353071,36.385705,Place on the eastern border of the Promised Land,-
Rock of Escape,1,31.41666666666668,35.1166666666667,Place where Saul stopped pursuing David,-
Sahar,1,33.664912,36.248576,Unknown location mentioned in Ezekiel's prophecy,-
Salamis,1,35.17724606944397,33.90755212865949,City on Cyprus visited by Paul and Barnabas,-
Salim,1,32.39933414034645,35.52644309698702,Place near Aenon where John the Baptist baptized,-
Salmone,1,35.21229729880597,26.27449174374278,Promontory on the island of Crete,-
Samos,1,37.715172,26.934167,Island visited by Paul during his travels,-
Samothrace,1,40.467279,25.486069,Island visited by Paul during his second missionary journey,-
Sansannah,1,31.391668,34.940502,Town in the Negev region of Judah,-
Sebam,1,31.815283,35.766738,Town in the territory of Reuben,-
Secacah,1,31.766667,35.283333,Town in the wilderness of Judah,-
Secu,1,31.883333,35.2,Place near Ramah visited by Saul,-
Seir Mount,1,31.783333,34.994,Landmark on the boundary of Judah,-
Seirah,1,31.93053920580005,35.22103274923676,Place where Ehud escaped after killing Eglon,-
Seleucia,1,36.11101750333098,35.92680788324002,Port city from which Paul and Barnabas sailed,-
Seneh,1,31.85309428405443,35.28616916703533,Rocky crag near Michmash,-
Sephar,1,14.550219,44.392642,Boundary of the territory settled by Joktan's descendants,-
Shaalim,1,31.84684772753698,35.18491237777512,Region traversed by Saul in search of donkeys,-
Shahazumah,1,32.40643,35.504628,Border town of Issachar,-
Shalishah,1,31.84684772753698,35.18491237777512,Region Saul passed through seeking donkeys,-
Shallecheth,1,31.777444,35.234935,Gate in Jerusalem assigned to Shuppim and Hosah,-
Shamir,1,31.416667,34.933333,Town in the hill country of Judah,-
Shaphir,1,31.743719,34.694006,Town addressed in Micah's prophecy,-
Sharon,1,33.41615982399708,35.85725617635589,Region where Gadites pastured their flocks,-
Shebarim,1,31.91697811712517,35.26122639380886,Place near Ai where Israelites fled,-
Shema,1,31.162327,35.057114,Town in the Negev region of Judah,-
Shen,1,31.83273947023218,35.1801628605877,Place where Samuel set up the Ebenezer stone,-
Shihor-libnath,1,32.538496,34.907697,Boundary point of Asher's territory,-
Shikkeron,1,31.77761410537458,34.85214575880509,Town on the border of Judah,-
Shion,1,32.716666,35.333334,Town in the territory of Issachar,-
Shittim Valley,1,31.85826217905818,35.64156652792805,Valley mentioned in Joel's prophecy,-
Shoa,1,34.798311,48.514966,People group mentioned in Ezekiel's prophecy,-
Shual,1,31.95378955858199,35.29913577541004,Region raided by Philistines during Saul's reign,-
Sibraim,1,35.136204,36.749488,Landmark on the northeastern border of the Promised Land,-
Silla,1,31.777444,35.234935,Place where King Joash was assassinated,-
Siphmoth,1,31.373521,35.074552,Town in southern Judah that received spoils from David,-
Sitnah,1,31.39129109635703,34.56057015639144,"Well dug by Isaac, disputed by Philistines",-
Socoh,1,31.41666959977098,34.96667012280085,A town in the hill country of Judah,-
Sorek Valley,1,31.825731,34.989013,"Valley where Delilah lived, Samson's downfall occurred",-
Straight,1,33.519299,36.31344999999999,Street in Damascus where Saul stayed after conversion,-
Suph,1,27.088473,34.771729,Place near where Moses spoke to Israel,-
Suphah,1,27.088473,34.771729,Place mentioned in the Book of the Wars of the Lord,-
Sur,1,31.777444,35.234935,Gate of the temple in Jerusalem,-
Sychar,1,32.20307656686443,35.31192106402537,Samaritan city near Jacob's well,-
Syracuse,1,37.06823247873927,15.2948238829937,City in Sicily where Paul's ship stopped,-
Syrtis,1,31.766667,18.505556,Dangerous shallow waters off the coast of Libya,-
Taanath-shiloh,1,32.15,35.383333,Landmark on the border of Ephraim's territory,-
Tabbath,1,32.35601,35.536929,Place near where Midianites fled from Gideon,-
Tabor,1,31.93053920580005,35.22103274923676,"Oak tree near Bethel, mentioned in Samuel's prophecy",-
Tappuah,1,32.15,35.126,Town in the Judean Shephelah,-
Taralah,1,31.792733,35.196862,Town allotted to the tribe of Benjamin,-
Tel-abib,1,32.127213,45.229995,Settlement of exiled Jews in Babylonia,-
Telaim,1,31.244952,34.840888,Place where Saul gathered his army,-
Telem,1,31.244952,34.840888,Town in the Negev region of Judah,-
Three Taverns,1,41.59132,12.828636,Staging post on the Appian Way near Rome,-
Tibhath,1,33.93148,36.152049,City from which David took bronze for the Temple,-
Timnah,1,31.699323,35.040359,Town in the hill country of Judah,-
Tiphsah,1,35.847967,38.73235,"City on the Euphrates, extent of Solomon's kingdom",-
Tiphsah,1,32.166667,35.166667,City attacked by King Menahem of Israel,-
Tochen,1,31.8099,34.9365,Town in the territory of Simeon,-
Tolad,1,31.244952,34.840888,Town in the territory of Simeon,-
Tophel,1,30.936991,35.61687,A place near where Moses addressed the Israelites,-
Trachonitis,1,32.833333,36.5,A rugged region northeast of the Jordan River,-
Travelers Valley,1,31.49684513710609,35.78284105296996,A valley where Gog's army will be buried,-
Ummah,1,33.104377,35.180623,A town allotted to the tribe of Asher,-
Uzal,1,15.354879,44.215092,A place mentioned in Ezekiel's prophecy,-
Uzzen-sheerah,1,31.887821,35.045649,"A town built by Sheerah, daughter of Ephraim",-
Waheb,1,27.088473,34.771729,A place mentioned in the Book of Numbers,-
Way of Holiness,1,31.777444,35.234935,A prophesied highway for the redeemed in Isaiah,-
Wildgoats Rocks,1,31.46152536164766,35.39241108242345,A place near En Gedi where David hid from Saul,-
Yiron,1,33.088748,35.414111,A town allotted to the tribe of Naphtali,-
Zaanan,1,31.743719,34.694006,A town mentioned in Micah's prophecy,-
Zanoah,1,31.366667,35.0,A town in the hill country of Judah,-
Zeboim,1,31.10182240291489,35.47633656511371,A town resettled by the people of Judah after the exile,-
Zeboim Valley,1,31.936283,35.424836,A valley mentioned in connection with Saul's military campaigns,-
Zelzah,1,31.717666,35.187019,A place near Rachel's tomb in Benjamin,-
Zenan,1,31.743719,34.694006,A town in the Judean lowlands,-
Zephathah Valley,1,31.615198,34.910085,A valley where Asa defeated the Cushite army,-
Zer,1,33.125828,35.165,A fortified city in Naphtali,-
Zeredah,1,32.23293813761263,35.27304180036391,"The hometown of Jeroboam, first king of Israel",-
Zereth-shahar,1,31.616962,35.567522,A city in Reuben's territory by the Dead Sea,-
Ziddim,1,32.814279,35.435872,A fortified city in Naphtali,-
Zimri,1,32.18919123705116,48.25788647687722,A nation mentioned in Jeremiah's prophecy against nations,-
Zior,1,31.589719,35.148296,A town in the hill country of Judah,-
Ziph,1,31.244952,34.840888,A town in the Negev of Judah,-
Ziphron,1,34.229499,37.240077,A place on the northern border of the Promised Land,-
Ziz,1,31.572903,35.406346,A pass where Jehoshaphat defeated Moab and Ammon,-
Zophim,1,31.767811,35.725296,A place in Moab where Balaam blessed Israel,-
Zuph,1,31.846847,35.184912,A land where Saul searched for his father's donkeys,-
